City_ID,City,Lat,Lng,Max Temp,Humidity,Cloudiness,Wind Speed,Country,Date
0,hithadhoo,-0.6,73.0833,27.73,77,40,2.43,MV,1702331729
1,port mathurin,-19.6833,63.4167,25.94,76,91,2.67,MU,1702331734
2,albany,42.6001,-73.9662,2.51,75,12,5.36,US,1702331727
3,talnakh,69.4865,88.3972,-26.54,98,100,4.7,RU,1702331558
4,edinburgh of the seven seas,-37.0676,-12.3116,13.53,90,100,9.22,SH,1702331720
5,waitangi,-43.9535,-176.5597,14.34,91,100,3.13,NZ,1702331722
6,bowen,-20.0167,148.2333,26.86,81,70,10.06,AU,1702331925
7,colonia,50.9333,6.95,9.86,81,0,4.12,DE,1702331546
8,blackmans bay,-43.0167,147.3167,16.07,79,20,0.89,AU,1702331718
9,st. john's,47.5649,-52.7093,12.66,95,75,8.75,CA,1702331771
10,mount gambier,-37.8333,140.7667,21.21,71,60,3.72,AU,1702331537
11,olyokminsk,60.3736,120.4264,-27.72,95,100,2.11,RU,1702331925
12,hadibu,12.65,54.0333,24.43,69,62,4.54,YE,1702331726
13,port-aux-francais,-49.35,70.2167,5.65,98,99,10.34,TF,1702331720
14,yellowknife,62.456,-114.3525,-23.71,77,75,1.03,CA,1702331728
15,nova sintra,14.8667,-24.7167,23.18,68,28,7.35,CV,1702331769
16,walvis bay,-22.9575,14.5053,16.72,82,18,3.6,NA,1702331925
17,el calafate,-50.3408,-72.2768,11.78,49,86,6.12,AR,1702331710
18,nea alikarnassos,35.3333,25.1667,14.71,83,40,2.06,GR,1702331925
19,tazovsky,67.4667,78.7,-25.39,95,100,3.9,RU,1702331719
20,luderitz,-26.6481,15.1594,18.89,55,0,9.34,NA,1702331712
21,grytviken,-54.2811,-36.5092,2.31,77,32,5.49,GS,1702331719
22,stanley,54.868,-1.6985,0.43,97,20,0.0,GB,1702331734
23,punta arenas,-53.15,-70.9167,13.06,41,75,10.8,CL,1702331741
24,paraparaumu,-40.9167,175.0167,18.36,56,42,2.82,NZ,1702331926
25,ushuaia,-54.8,-68.3,10.81,43,0,1.54,AR,1702331690
26,merizo village,13.2658,144.6691,27.85,88,49,6.51,GU,1702331926
27,sarupathar,26.1984,93.8094,15.08,93,0,0.45,IN,1702331926
28,tsarevo,42.1667,27.85,5.68,86,2,1.78,BG,1702331926
29,coahuayana de hidalgo,18.7,-103.6583,31.16,49,64,2.16,MX,1702331926
30,thompson,55.7435,-97.8558,-10.91,73,100,9.77,CA,1702331723
31,mount pearl,47.5166,-52.7813,12.19,95,75,8.75,CA,1702331926
32,kone,-21.0595,164.8658,27.79,51,78,1.39,NC,1702331789
33,lorengau,-2.0226,147.2712,28.46,83,97,4.96,PG,1702331765
34,invercargill,-46.4,168.35,10.41,58,64,8.63,NZ,1702331262
35,kavaratti,10.5669,72.642,27.6,79,94,2.95,IN,1702331550
36,adamstown,-25.066,-130.1015,21.64,60,1,1.95,PN,1702331722
37,wailua homesteads,22.0669,-159.378,27.24,83,20,4.12,US,1702331727
38,aasiaat,68.7098,-52.8699,-1.04,76,100,5.13,GL,1702331735
39,ancud,-41.8697,-73.8203,12.22,87,100,5.29,CL,1702331748
40,carnarvon,-24.8667,113.6333,24.43,39,0,2.78,AU,1702331760
41,yesilyurt,38.2972,38.2497,5.97,88,100,0.55,TR,1702331927
42,lebu,-37.6167,-73.65,15.18,72,100,3.14,CL,1702331747
43,saint-philippe,-21.3585,55.7679,24.77,81,59,4.69,RE,1702331927
44,iqaluit,63.7506,-68.5145,-15.15,72,100,4.12,CA,1702331609
45,puerto natales,-51.7236,-72.4875,12.25,47,75,8.75,CL,1702331570
46,onguday,50.75,86.15,-16.04,81,100,0.5,RU,1702331927
47,souillac,-20.5167,57.5167,25.21,78,20,2.06,MU,1702331927
48,whitehorse,60.7161,-135.0538,0.43,74,75,12.35,CA,1702331540
49,redencao,-4.2258,-38.7306,25.63,74,39,2.07,BR,1702331748
50,nova xavantina,-14.6667,-52.35,28.66,61,99,1.31,BR,1702331927
51,hermanus,-34.4187,19.2345,17.37,87,62,5.81,ZA,1702331728
52,chonchi,-42.6128,-73.8092,13.56,93,100,2.32,CL,1702331769
53,burewala,30.1667,72.65,14.19,28,33,1.39,PK,1702331928
54,dunedin,-45.8742,170.5036,10.45,72,87,4.02,NZ,1702331722
55,san antonio de pale,-1.4014,5.6325,25.63,85,100,3.45,GQ,1702331728
56,yuzhno-kurilsk,44.0306,145.8556,0.76,76,100,4.06,RU,1702331340
57,lakatoro,-16.0999,167.4164,26.02,68,100,6.33,VU,1702331928
58,margaret river,-33.95,115.0667,15.59,72,0,4.31,AU,1702331717
59,axim,4.8699,-2.2405,26.97,82,16,3.15,GH,1702331928
60,ketchikan,55.3422,-131.6461,4.99,87,75,3.09,US,1702331331
61,vorgashor,67.5833,63.95,-19.1,90,100,5.95,RU,1702331720
62,port alfred,-33.5906,26.891,17.88,95,4,0.45,ZA,1702331739
63,aral,40.5156,81.2636,-2.06,51,77,1.97,CN,1702331781
64,pandan,14.0453,124.1694,26.07,86,65,3.64,PH,1702331769
65,utrik,11.2278,169.8474,27.15,71,20,9.34,MH,1702331721
66,amahai,-3.3333,128.9167,26.25,81,95,1.96,ID,1702331336
67,west island,-12.1568,96.8225,24.99,83,93,3.09,CC,1702331720
68,ngereklmadel,7.4883,134.4856,27.68,78,51,4.85,PW,1702331929
69,olonkinbyen,70.9221,-8.7187,-0.16,99,100,5.61,SJ,1702331730
70,inhambane,-23.865,35.3833,25.66,93,100,2.68,MZ,1702331554
71,susuman,62.7833,148.1667,-21.68,96,100,2.24,RU,1702331348
72,ilhabela,-23.7781,-45.3581,22.7,90,89,3.87,BR,1702331209
73,punta del este,-34.9667,-54.95,26.06,89,40,6.71,UY,1702331801
74,longyearbyen,78.2186,15.6401,-6.09,68,75,5.14,SJ,1702331749
75,kapuskasing,49.4169,-82.4331,-8.95,79,100,4.63,CA,1702331721
76,vallo della lucania,40.2297,15.2658,8.74,86,43,0.92,IT,1702331929
77,lincoln city,44.9582,-124.0179,11.51,94,65,4.02,US,1702331876
78,silchar,24.8167,92.8,15.68,92,1,1.3,IN,1702331929
79,faya-largeau,17.9257,19.1043,18.8,34,0,7.68,TD,1702331929
80,qal'ah-ye shahr,35.5473,65.5676,-0.25,95,97,0.47,AF,1702331929
81,lihue,21.9789,-159.3672,27.58,79,20,4.12,US,1702331753
82,duiwelskloof,-23.6934,30.14,18.54,95,100,0.36,ZA,1702331930
83,murzuq,25.9155,13.9184,12.21,41,0,2.5,LY,1702331930
84,bredasdorp,-34.5322,20.0403,18.19,74,40,3.63,ZA,1702331724
85,iskateley,67.6803,53.1512,-14.48,91,100,8.44,RU,1702331726
86,byalynichy,53.9983,29.7126,-0.84,97,100,6.22,BY,1702331930
87,mount isa,-20.7333,139.5,24.87,36,0,6.17,AU,1702331930
88,heunghae,36.1125,129.3522,8.26,82,100,8.15,KR,1702331930
89,mokhsogollokh,61.4681,128.9203,-28.1,91,100,3.99,RU,1702331930
90,kingston,17.997,-76.7936,29.53,69,20,9.77,JM,1702331551
91,namibe,-15.1961,12.1522,22.29,71,46,3.3,AO,1702331732
92,keflavik,64.0049,-22.5624,-1.05,86,20,3.09,IS,1702331784
93,atafu village,-8.5421,-172.5159,28.74,79,100,10.87,TK,1702331722
94,as samawah,31.332,45.2944,21.0,32,100,3.8,IQ,1702331931
95,as sulayyil,20.4607,45.5779,14.14,27,33,3.02,SA,1702331836
96,ironwood,46.4547,-90.171,-4.55,79,0,6.17,US,1702331931
97,dakhla,23.6848,-15.958,21.01,46,11,4.63,EH,1702331734
98,vilyuchinsk,52.9306,158.4028,-8.85,84,14,3.52,RU,1702331539
99,buka,40.8108,69.1986,-5.47,95,100,4.04,UZ,1702331931
100,horsham,51.064,-0.3272,10.7,87,75,1.03,GB,1702331484
101,arkhangel'sk,64.5401,40.5433,-13.94,77,40,3.0,RU,1702331761
102,las tablas,7.7667,-80.2833,28.99,99,14,3.17,PA,1702331340
103,east ballina,-28.8667,153.5833,23.78,64,76,0.64,AU,1702331779
104,namsos,64.4662,11.4957,-4.97,93,34,5.14,NO,1702331931
105,klyuchi,52.2667,79.1667,-24.13,87,28,6.26,RU,1702331768
106,papatowai,-46.5619,169.4708,9.85,66,55,9.02,NZ,1702331731
107,gadzhiyevo,69.2551,33.3362,-13.17,91,94,7.98,RU,1702331733
108,la passe,45.5549,-0.8967,14.13,90,100,5.47,FR,1702331700
109,cloverdale,38.8055,-123.0172,19.38,63,17,1.79,US,1702331932
110,ghadamis,30.1337,9.5007,13.5,42,0,2.73,LY,1702331932
111,zhalantun,48.0,122.7167,-26.04,91,26,2.4,CN,1702331859
112,partenit,44.578,34.3446,10.47,78,86,1.59,UA,1702331932
113,polyarnyy,69.1989,33.4478,-12.66,91,96,7.53,RU,1702331780
114,ladario,-19.0047,-57.6017,33.05,62,0,2.57,BR,1702331932
115,ribeira grande,38.5167,-28.7,14.22,77,40,2.57,PT,1702331724
116,puerto ayora,-0.7393,-90.3518,27.98,78,72,3.75,EC,1702331715
117,minas de marcona,-15.2119,-75.1103,18.3,71,7,6.71,PE,1702331740
118,hamilton,39.1834,-84.5333,5.13,63,20,4.12,US,1702331344
119,vila velha,-20.3297,-40.2925,27.97,83,20,6.17,BR,1702331778
120,danville,36.586,-79.395,7.36,51,0,4.63,US,1702331481
121,khandyga,62.6667,135.6,-33.62,99,100,0.22,RU,1702331932
122,dudinka,69.4058,86.1778,-24.62,98,100,6.26,RU,1702331728
123,olinda,-8.0089,-34.8553,27.85,69,40,3.6,BR,1702331933
124,bandon,51.7469,-8.7425,9.77,94,100,4.83,IE,1702331933
125,port elizabeth,-33.918,25.5701,17.28,92,0,1.54,ZA,1702331724
126,satipo,-11.2522,-74.6386,29.47,61,83,0.71,PE,1702331933
127,smolyan,41.5853,24.6919,0.75,74,16,1.52,BG,1702331933
128,kodiak,57.79,-152.4072,-0.27,64,20,3.6,US,1702331335
129,lensk,60.7253,114.9278,-28.82,98,98,1.92,RU,1702331933
130,castillos,-34.1667,-53.8333,19.17,82,75,5.04,UY,1702331179
131,port lincoln,-34.7333,135.8667,18.62,65,77,4.51,AU,1702331597
132,mejit,10.2753,170.8646,27.19,69,17,8.18,MH,1702331748
133,alice springs,-23.7,133.8833,15.75,59,0,0.0,AU,1702331576
134,bethel,41.3712,-73.414,5.29,66,100,5.14,US,1702331693
135,ilulissat,69.2167,-51.1,2.01,64,100,7.72,GL,1702331529
136,yuli,9.6989,10.2744,20.36,23,2,3.13,NG,1702331933
137,baihe,22.15,107.2333,22.03,89,100,1.13,CN,1702331933
138,pop,40.8736,71.1089,2.27,84,99,4.65,UZ,1702331934
139,altay,47.8667,88.1167,-8.22,96,100,0.83,CN,1702331934
140,bilibino,68.0546,166.4372,-20.14,95,100,1.6,RU,1702331698
141,pangody,65.85,74.4859,-26.55,89,100,5.63,RU,1702331759
142,dumas,35.8656,-101.9732,13.63,24,0,3.09,US,1702331934
143,daru,-9.0763,143.2092,26.21,87,55,4.02,PG,1702331766
144,estevan,49.1334,-102.9842,-3.81,68,0,9.26,CA,1702331888
145,pisco,-13.7,-76.2167,23.03,73,0,8.75,PE,1702331745
146,kiuruvesi,63.65,26.6167,-15.3,97,100,1.69,FI,1702331934
147,juriquilla,20.7167,-100.45,11.4,67,100,1.04,MX,1702331934
148,isafjordur,66.0755,-23.124,-4.88,82,93,0.82,IS,1702331723
149,nuuk,64.1835,-51.7216,1.34,86,100,17.49,GL,1702331719
150,hawaiian paradise park,19.5933,-154.9731,25.57,94,75,1.54,US,1702331735
151,new norfolk,-42.7826,147.0587,16.72,46,90,1.04,AU,1702331934
152,harper,4.375,-7.7169,26.37,83,23,2.95,LR,1702331731
153,tura,25.5198,90.2201,14.71,89,0,1.44,IN,1702331706
154,plymouth,41.8334,-70.8328,7.09,70,100,5.66,US,1702331902
155,chanasma,23.7167,72.1167,17.9,35,28,2.24,IN,1702331935
156,babayurt,43.6002,46.7789,5.89,75,100,11.99,RU,1702331935
157,green river,41.5286,-109.4662,2.22,69,96,0.55,US,1702331935
158,tazacorte,28.629,-17.9293,20.64,48,0,2.68,ES,1702331354
159,chibougamau,49.9168,-74.3659,-9.21,86,100,2.57,CA,1702331736
160,san luis de la loma,17.2706,-100.8939,30.08,58,98,2.03,MX,1702331935
161,saint-pierre,-21.3393,55.4781,24.82,73,0,6.69,RE,1702331751
162,margate,51.3813,1.3862,7.61,92,1,1.34,GB,1702331935
163,san andres,12.5847,-81.7006,27.01,94,40,6.69,CO,1702331935
164,haiku-pauwela,20.9219,-156.3051,30.01,60,20,7.2,US,1702331750
165,san patricio,28.017,-97.5169,20.48,36,100,4.51,US,1702331766
166,yemetsk,63.4721,41.7941,-11.34,94,100,3.96,RU,1702331935
167,gunjur,13.2019,-16.7339,24.04,69,0,0.0,GM,1702331935
168,l'govskiy,51.6307,35.2775,-1.18,96,100,4.63,RU,1702331936
169,duong dong,10.2167,103.9667,25.0,94,20,1.03,VN,1702331936
170,praia da vitoria,38.7333,-27.0667,14.14,82,20,5.94,PT,1702331756
171,charters towers,-20.1,146.2667,23.59,85,100,6.47,AU,1702331936
172,qarazhal,48.0078,70.7903,-24.23,83,80,8.61,KZ,1702331731
173,ciudad lazaro cardenas,17.9583,-102.2,30.92,47,89,1.14,MX,1702331495
174,korla,41.7597,86.1469,-3.26,61,73,1.9,CN,1702331936
175,katabu,-4.9333,122.5167,25.35,90,90,0.46,ID,1702331936
176,nantucket,41.2835,-70.0995,7.06,70,0,5.14,US,1702331648
177,zeribet el oued,34.6828,6.5111,15.48,53,0,1.44,DZ,1702331352
178,chyhyryn,49.0838,32.6555,2.52,99,100,5.07,UA,1702331936
179,villa mercedes,-33.6757,-65.4578,33.9,25,20,7.23,AR,1702331936
180,kenai,60.5544,-151.2583,-0.95,94,100,13.38,US,1702331340
181,geraldton,-28.7667,114.6,22.23,26,0,5.14,AU,1702331257
182,awjilah,29.1081,21.2869,15.67,72,42,6.14,LY,1702331757
183,minab,27.1467,57.0801,21.25,45,100,0.29,IR,1702331937
184,kalymnos,36.95,26.9833,15.74,72,40,2.57,GR,1702331937
185,qaqortoq,60.7167,-46.0333,-1.35,96,100,5.17,GL,1702331540
186,kayangel,8.0823,134.7173,28.36,76,41,6.5,PW,1702331920
187,saldanha,-33.0117,17.9442,17.03,91,54,7.94,ZA,1702331785
188,tisul',55.7611,88.3122,-37.5,100,86,0.56,RU,1702331937
189,tebessa,35.4042,8.1242,9.6,71,0,2.06,DZ,1702331937
190,duyun,26.2667,107.5167,7.6,90,100,2.46,CN,1702331937
191,avarua,-21.2078,-159.775,26.03,83,75,10.29,CK,1702331735
192,kailua-kona,19.6406,-155.9956,29.17,78,40,4.12,US,1702331773
193,mohr,54.3528,9.7167,5.64,99,75,3.6,DE,1702331752
194,sinabang,2.4803,96.3801,25.91,81,98,0.96,ID,1702331755
195,massawa,15.6097,39.45,27.85,62,84,0.35,ER,1702331937
196,gewane,10.1664,40.6453,23.71,51,10,2.78,ET,1702331938
197,farasan,16.7022,42.1183,27.79,70,9,6.99,SA,1702331938
198,moab,38.5733,-109.5498,7.49,32,76,1.11,US,1702331691
199,georgetown,5.4112,100.3354,26.08,97,20,1.54,MY,1702331538
200,diglur,18.55,77.6,17.5,60,45,1.41,IN,1702331938
201,magadan,59.5667,150.8,-9.12,95,100,4.26,RU,1702331938
202,tiksi,71.6872,128.8694,-22.19,100,100,3.85,RU,1702331721
203,shenjiamen,29.9576,122.298,9.04,84,100,10.5,CN,1702331755
204,kamin-kashyrskyi,51.6241,24.9586,1.36,99,100,5.17,UA,1702331938
205,san juan,-31.5375,-68.5364,37.47,15,0,4.77,AR,1702331697
206,kristiansund,63.1115,7.732,-2.64,80,0,1.03,NO,1702331938
207,la'ie,21.6477,-157.9253,28.98,75,18,2.24,US,1702331736
208,ternate,0.8,127.4,26.91,84,28,3.0,ID,1702331938
209,sisimiut,66.9395,-53.6735,-0.67,88,100,10.39,GL,1702331345
210,namtsy,62.7161,129.6658,-33.54,99,100,1.39,RU,1702331938
211,fortuna,40.5982,-124.1573,17.18,82,0,0.89,US,1702331751
212,monticello,45.3055,-93.7941,1.19,77,0,4.63,US,1702331939
213,leava,-14.3,-178.1667,26.66,61,70,3.2,WF,1702331939
214,port augusta,-32.5,137.7667,20.5,48,60,3.82,AU,1702331800
215,bubaque,11.2833,-15.8333,28.02,63,1,5.82,GW,1702331939
216,labytnangi,66.6572,66.4183,-27.72,99,100,3.29,RU,1702331939
217,ust-nera,64.5667,143.2,-19.46,98,100,3.4,RU,1702331740
218,okhotsk,59.3833,143.3,-9.62,90,100,2.04,RU,1702331744
219,udachny,66.4167,112.4,-24.92,97,100,3.99,RU,1702331717
220,jamestown,42.097,-79.2353,0.01,77,100,5.14,US,1702331555
221,cabo san lucas,22.8909,-109.9124,28.12,60,0,2.07,MX,1702331562
222,oranjemund,-28.55,16.4333,16.17,93,1,6.03,NA,1702331939
223,cockburn town,21.4612,-71.1419,26.98,78,40,6.17,TC,1702331760
224,rundu,-17.9333,19.7667,26.31,45,89,3.9,NA,1702331911
225,huicungo,-7.2833,-76.8,29.18,63,86,0.32,PE,1702331940
226,sorong,-0.8833,131.25,27.81,77,94,1.81,ID,1702331940
227,yuzhno-sukhokumsk,44.6581,45.6436,4.12,81,100,10.88,RU,1702331940
228,newman,37.3138,-121.0208,16.24,49,96,1.34,US,1702331747
229,ha'il,27.5219,41.6907,14.01,26,0,4.12,SA,1702331805
230,hasaki,35.7333,140.8333,12.38,86,100,10.86,JP,1702331742
231,rawson,-43.3002,-65.1023,16.33,59,67,3.25,AR,1702331940
232,agneaux,49.119,-1.1061,11.23,93,100,4.62,FR,1702331940
233,urangan,-25.3,152.9,24.52,65,95,6.32,AU,1702331940
234,queenstown,-31.8976,26.8753,15.4,79,48,0.49,ZA,1702331774
235,guantanamo,20.1444,-75.2092,26.76,84,44,2.09,CU,1702331940
236,prince rupert,54.3161,-130.3201,5.05,79,0,8.23,CA,1702331752
237,aleksandrovsk-sakhalinskiy,50.8975,142.1561,-17.46,81,100,2.66,RU,1702331940
238,novyy urengoy,66.0833,76.6333,-25.05,88,100,5.05,RU,1702331940
239,touros,-5.1989,-35.4608,26.68,75,0,6.19,BR,1702331763
240,klaksvik,62.2266,-6.589,4.51,84,100,6.4,FO,1702331773
241,rio claro,-22.4114,-47.5614,22.72,81,80,2.51,BR,1702331799
242,nsanje,-16.92,35.262,25.78,78,78,0.85,MW,1702331941
243,howrah,22.5892,88.3103,17.0,82,0,2.06,IN,1702331744
244,phan thiet,10.9333,108.1,21.99,85,94,2.48,VN,1702331941
245,tostado,-29.232,-61.7692,28.23,45,0,4.01,AR,1702331941
246,el charco,2.4769,-78.1105,27.39,85,78,2.47,CO,1702331941
247,ouesso,1.6136,16.0517,22.62,93,100,0.73,CG,1702331941
248,emerald,-23.5333,148.1667,25.19,65,96,8.48,AU,1702331941
249,kuching,1.55,110.3333,26.12,97,40,1.03,MY,1702331941
250,sao paulo de olivenca,-3.3783,-68.8725,26.91,93,87,0.31,BR,1702331770
251,xicotencatl,23.0167,-98.8833,18.8,44,100,5.08,MX,1702331941
252,medicine hat,50.0501,-110.6683,-0.16,50,75,3.09,CA,1702331734
253,bikenibeu village,1.3673,173.1241,28.52,72,81,1.38,KI,1702331755
254,afaahiti,-17.75,-149.2833,27.81,78,95,10.22,PF,1702331556
255,callao,-12.0667,-77.15,22.16,68,75,6.17,PE,1702331785
256,samraong,12.4526,105.5873,20.36,84,26,1.49,KH,1702331942
257,tolanaro,-25.0319,46.9987,26.04,94,20,6.17,MG,1702331743
258,cascais,38.6979,-9.4215,17.87,97,100,6.26,PT,1702331942
259,weno,7.4515,151.8468,26.97,89,100,3.6,FM,1702331729
260,las khorey,11.1595,48.1967,24.86,69,12,2.55,SO,1702331942
261,la penita de jaltomba,21.0333,-105.25,28.83,65,6,0.52,MX,1702331942
262,ramapuram,13.1167,79.2,21.45,91,88,1.31,IN,1702331942
263,palmer,42.1584,-72.3287,4.75,63,20,7.2,US,1702331943
264,manta,-0.95,-80.7333,27.88,83,75,4.92,EC,1702331943
265,mazamitla,19.9167,-103.0333,13.74,68,89,3.05,MX,1702331943
266,benguela,-12.5763,13.4055,26.23,83,100,2.15,AO,1702331770
267,huarmey,-10.0681,-78.1522,22.18,77,8,4.49,PE,1702331848
268,mariehamn,60.0973,19.9348,-1.77,86,100,5.14,AX,1702331943
269,jesup,31.6074,-81.8854,13.88,50,0,0.0,US,1702331943
270,la malbaie,47.6575,-70.1559,0.37,82,100,3.46,CA,1702331721
271,n'zeto,-7.2312,12.8666,26.5,78,100,1.92,AO,1702331944
272,dauphin,51.1494,-100.0502,-2.92,59,100,7.2,CA,1702331944
273,kelso,46.1468,-122.9084,10.83,96,100,3.09,US,1702331944
274,puerto lempira,15.2667,-83.7667,26.41,87,28,4.49,HN,1702331944
275,antigonish,45.6169,-61.9986,15.1,92,100,9.39,CA,1702331944
276,meadow lakes,61.6247,-149.6011,-0.27,90,75,0.0,US,1702331944
277,sitka,57.0531,-135.33,6.94,76,100,5.66,US,1702331724
278,kirakira,-10.4544,161.9205,28.27,74,76,0.98,SB,1702331773
279,pasni,25.2631,63.471,23.65,27,75,4.01,PK,1702331944
280,college,64.8569,-147.8028,-8.03,82,100,0.0,US,1702331747
281,mossel bay,-34.1831,22.146,17.96,80,0,3.99,ZA,1702331945
282,brisas de zicatela,15.8369,-97.0419,30.29,62,40,2.06,MX,1702331945
283,ornskoldsvik,63.2909,18.7153,-5.47,93,100,2.57,SE,1702331945
284,fort bragg,35.139,-79.006,8.75,58,0,2.57,US,1702331945
285,smithers,54.7804,-127.1743,-3.82,86,100,2.06,CA,1702331945
286,fort st. john,56.2499,-120.8529,-3.06,63,75,6.17,CA,1702331945
287,chimbote,-9.0853,-78.5783,21.69,76,13,4.36,PE,1702331945
288,matoury,4.8483,-52.3317,27.98,78,40,2.57,GF,1702331946
289,selfoss,63.9331,-20.9971,-3.75,90,59,2.68,IS,1702331778
290,viedma,-40.8135,-62.9967,27.42,36,94,13.82,AR,1702331766
291,east london,-33.0153,27.9116,19.29,87,56,1.75,ZA,1702331792
292,champerico,14.3,-91.9167,29.45,67,2,3.1,GT,1702331861
293,inca,39.7211,2.9109,14.87,98,83,1.9,ES,1702331946
294,puerto baquerizo moreno,-0.9,-89.6,27.55,74,75,4.63,EC,1702331756
295,zyryanskoye,56.8306,86.6258,-34.55,99,23,2.12,RU,1702331946
296,i-n-salah,27.1935,2.4607,16.11,35,0,5.43,DZ,1702331761
297,madimba,-10.4,40.3333,26.48,85,100,3.53,TZ,1702331946
298,moravske toplice,46.6858,16.2217,1.51,93,88,1.15,SI,1702331946
299,tralee,52.2704,-9.7026,7.75,94,100,2.2,IE,1702331946
300,kayar,14.9192,-17.1211,24.53,68,1,4.68,SN,1702331947
301,bamboo flat,11.7,92.7167,26.81,82,53,3.68,IN,1702331947
302,muswellbrook,-32.2667,150.9,22.91,65,98,3.06,AU,1702331947
303,forbes,-33.3833,148.0167,27.73,39,31,4.39,AU,1702331947
304,baukau,51.5526,7.2042,9.66,83,100,2.24,DE,1702331947
305,sandnessjoen,66.0217,12.6316,-2.94,63,0,1.54,NO,1702331947
306,tamanrasset,22.785,5.5228,14.95,18,0,3.09,DZ,1702331736
307,barra dos coqueiros,-10.9089,-37.0386,28.01,69,0,6.69,BR,1702331947
308,shahrak,34.1074,64.3052,-2.0,78,1,0.99,AF,1702331740
309,santa ana de yacuma,-13.75,-65.4333,26.97,89,75,3.09,BO,1702331352
310,antonio enes,-16.2325,39.9086,26.97,79,86,3.75,MZ,1702331771
311,goondiwindi,-28.55,150.3167,24.15,54,18,6.65,AU,1702331948
312,codrington,-38.2667,141.9667,20.9,82,100,5.73,AU,1702331745
313,carutapera,-1.195,-46.02,26.79,77,51,4.28,BR,1702331948
314,badger,64.8,-147.5333,-8.07,86,100,0.0,US,1702331733
315,ha giang,22.8333,104.9833,21.1,98,33,1.04,VN,1702331948
316,at taraf,25.3628,49.725,17.3,39,75,2.31,SA,1702331948
317,atascocita,29.9988,-95.1766,18.5,40,20,2.57,US,1702331859
318,santo antonio do ica,-3.1022,-67.9397,26.47,92,93,0.69,BR,1702331948
319,nkhotakota,-12.9274,34.2961,26.51,72,72,3.3,MW,1702331949
320,jayapura,-2.5333,140.7,26.66,84,100,2.33,ID,1702331949
321,itacoatiara,-3.1431,-58.4442,24.37,97,100,1.06,BR,1702331949
322,south hedland,-20.4089,118.5983,19.96,68,0,2.06,AU,1702331949
323,zakynthos,37.7914,20.8953,10.91,74,15,2.44,GR,1702331949
324,diego de almagro,-26.3667,-70.05,27.63,18,4,4.91,CL,1702331949
325,luziania,-16.2525,-47.9503,25.83,73,100,2.06,BR,1702331949
326,espanola,35.9911,-106.0806,11.78,28,100,0.57,US,1702331949
327,hue,16.4667,107.6,23.06,100,40,1.03,VN,1702331949
328,karachi,24.9056,67.0822,16.9,82,45,2.57,PK,1702331950
329,juticalpa,14.65,-86.2,31.08,75,45,1.95,HN,1702331950
330,papao,-17.75,-149.55,28.7,78,90,10.98,PF,1702331692
331,kiffa,16.6166,-11.4045,23.8,13,73,4.72,MR,1702331950
332,kumagunnam,13.1551,10.6342,17.44,31,2,4.34,NG,1702331950
333,anadyr,64.75,177.4833,-26.67,75,20,4.0,RU,1702331737
334,pomorie,42.5588,27.6439,3.24,93,100,4.12,BG,1702331950
335,kalat,29.0225,66.5916,3.41,39,48,1.63,PK,1702331950
336,karlskrona,56.1616,15.5866,1.25,97,100,6.52,SE,1702331950
337,brandon,27.9378,-82.2859,17.72,58,0,2.24,US,1702331545
338,buenavista del norte,28.3746,-16.861,22.36,57,54,2.65,ES,1702331950
339,bodaybo,57.8506,114.1933,-28.46,99,100,0.48,RU,1702331951
340,kuanda,56.3161,116.0806,-36.5,98,80,0.28,RU,1702331951
341,safwa,26.6499,49.9522,16.04,67,69,2.72,SA,1702331951
342,hammerfest,70.6634,23.6821,-1.75,93,75,4.63,NO,1702331951
343,rongelap,11.1635,166.8941,27.67,76,73,8.9,MH,1702331761
344,remire-montjoly,4.9167,-52.2667,28.02,78,40,2.57,GF,1702331701
345,bekobod,40.2208,69.2697,-3.17,94,100,5.51,UZ,1702331951
346,nouadhibou,20.931,-17.0347,22.99,31,24,4.63,MR,1702331951
347,luganville,-15.5333,167.1667,25.78,74,100,3.33,VU,1702331553
348,belmonte,-15.8631,-38.8828,26.08,80,81,5.2,BR,1702331951
349,patur,20.45,76.9333,18.75,59,10,2.31,IN,1702331951
350,hanceville,34.0607,-86.7675,10.3,55,0,1.59,US,1702331951
351,constantia,44.1833,28.65,2.61,81,36,4.29,RO,1702331732
352,maceio,-9.6658,-35.7353,25.69,83,0,3.09,BR,1702331861
353,mwinilunga,-11.7358,24.4293,18.34,97,100,1.05,ZM,1702331952
354,mpraeso,6.5932,-0.7346,22.68,44,1,1.46,GH,1702331952
355,holualoa,19.6228,-155.9522,27.1,78,40,4.12,US,1702331915
356,bassila,9.0081,1.6654,24.25,20,3,2.19,BJ,1702331952
357,wewak,-3.5534,143.6268,26.22,89,93,2.31,PG,1702331952
358,palikir - national government center,6.9248,158.1611,28.41,79,100,2.57,FM,1702331737
359,port macquarie,-31.4333,152.9167,24.94,69,5,1.25,AU,1702331952
360,napier,-39.4833,176.9167,17.93,54,0,5.36,NZ,1702331952
361,artesia,33.8658,-118.0831,26.5,53,0,2.24,US,1702331701
362,urengoy,65.9667,78.3667,-25.67,90,100,3.9,RU,1702331953
363,ust'-kut,56.7938,105.7672,-34.76,100,78,0.45,RU,1702331953
364,port isabel,26.0734,-97.2086,20.05,52,0,5.14,US,1702331702
365,knyaze-volkonskoye,48.4642,135.4567,-23.81,96,9,4.05,RU,1702331953
366,akbarabad,29.2464,52.7793,2.79,33,100,0.59,IR,1702331953
367,kruisfontein,-34.0033,24.7314,16.05,86,1,2.97,ZA,1702331732
368,ibresi,55.2961,47.0394,-14.2,84,98,6.57,RU,1702331953
369,ghat,24.9647,10.1728,12.57,37,0,1.31,LY,1702331790
370,fougamou,-1.2154,10.5838,23.73,98,100,0.3,GA,1702331953
371,rumuruti,0.267,36.5389,14.59,96,77,2.57,KE,1702331953
372,nizhniy kuranakh,58.8353,125.4869,-30.99,97,100,1.93,RU,1702331953
373,ceerigaabo,10.6162,47.368,15.04,78,16,1.07,SO,1702331780
374,shirgaon,19.7,72.7,23.19,65,49,2.71,IN,1702331954
375,uturoa,-16.7333,-151.4333,26.96,76,82,8.97,PF,1702331735
376,salalah,17.0151,54.0924,22.66,31,26,1.85,OM,1702331954
377,enewetak,11.3474,162.3373,27.79,79,14,8.73,MH,1702331740
378,al kharijah,25.4514,30.5464,15.39,48,0,3.27,EG,1702331780
379,chulakkurgan,43.765,69.1814,-16.72,58,3,5.97,KZ,1702331954
380,lafia,8.4833,8.5167,26.37,20,1,3.5,NG,1702331955
381,altai,46.3722,96.2583,-14.29,84,65,0.81,MN,1702331955
382,leninskoye,41.7589,69.3864,-6.37,96,100,2.25,KZ,1702331955
383,nova vicosa,-17.8919,-39.3719,25.65,82,81,7.32,BR,1702331486
384,tobelo,1.7284,128.0095,26.64,85,13,2.06,ID,1702331955
385,white oak,39.2131,-84.5994,4.37,63,0,4.12,US,1702331948
386,greeneville,36.1632,-82.831,4.49,60,0,0.89,US,1702331668
387,iyidere,41.0119,40.3619,12.98,66,100,1.55,TR,1702331955
388,vytegra,61.0064,36.4481,-9.8,92,100,5.36,RU,1702331955
389,sarina,-21.4333,149.2167,26.45,1,94,8.43,AU,1702331955
390,rio grande,-32.035,-52.0986,25.06,85,8,6.74,BR,1702331752
391,dan sadau,11.2962,6.4952,19.45,24,0,4.47,NG,1702331955
392,aykhal,66.0,111.5,-26.17,99,100,2.05,RU,1702331746
393,baihar,22.1,80.55,13.27,73,53,0.62,IN,1702331956
394,port-vila,-17.7338,168.3219,24.78,69,75,3.09,VU,1702331956
395,acapulco de juarez,16.8634,-99.8901,29.19,60,98,1.3,MX,1702331956
396,pudozh,61.8099,36.5345,-10.59,92,100,3.13,RU,1702331956
397,beya,53.0533,90.9139,-27.87,98,98,0.47,RU,1702331956
398,cedeira,43.6797,-8.0209,16.88,77,100,8.91,ES,1702331956
399,linxia chengguanzhen,35.6003,103.2064,-0.52,44,0,1.02,CN,1702331956
400,khanty-mansiysk,61.0042,69.0019,-38.94,60,20,1.0,RU,1702331777
401,lycksele,64.5954,18.6735,-8.07,93,75,0.0,SE,1702331956
402,gaalkacyo,6.7697,47.4308,23.99,67,85,6.63,SO,1702331957
403,sola,-13.8833,167.55,26.35,63,100,7.4,VU,1702331767
404,pacific grove,36.6177,-121.9166,17.98,62,0,4.02,US,1702331853
405,jitra,6.2681,100.4217,24.94,94,20,0.51,MY,1702331957
406,vila do maio,15.1333,-23.2167,24.44,67,11,6.78,CV,1702331957
407,fale old settlement,-9.3852,-171.2468,28.91,77,100,10.02,TK,1702331749
408,reggane,26.7158,0.1714,17.96,32,9,5.17,DZ,1702331957
409,revda,56.801,59.9303,-32.36,97,87,1.35,RU,1702331765
410,pangani,-5.4333,38.9667,24.77,89,95,1.85,TZ,1702331957
411,borogontsy,62.6683,131.1683,-39.03,100,99,0.91,RU,1702331957
412,tsiombe,-25.3,45.4833,23.97,94,78,1.14,MG,1702331574
413,talara,-4.5772,-81.2719,27.42,65,0,5.66,PE,1702331958
414,kleinblittersdorf,49.1578,7.0373,9.24,90,75,4.63,DE,1702331724
415,marhaura,25.9667,84.8667,12.96,36,0,2.28,IN,1702331958
416,santiago de cao,-7.9589,-79.2392,22.07,78,34,4.63,PE,1702331787
417,bouafle,6.9904,-5.7442,25.01,58,95,1.6,CI,1702331958
418,swakopmund,-22.6833,14.5333,16.66,84,0,0.89,NA,1702331774
419,saint-joseph,-21.3667,55.6167,24.21,82,33,4.85,RE,1702331755
420,darwin,-12.4611,130.8418,27.75,88,75,3.09,AU,1702331878
421,buon ma thuot,12.6667,108.05,18.52,93,48,2.06,VN,1702331958
422,morehead city,34.7229,-76.726,10.0,70,0,3.6,US,1702331761
423,singleton,-32.5667,151.1833,23.29,94,68,3.51,AU,1702331596
424,el obeid,13.1842,30.2167,22.63,12,79,4.12,SD,1702331959
425,jaru,-10.4389,-62.4664,28.26,75,99,1.31,BR,1702331959
426,vilyuysk,63.7553,121.6247,-27.07,97,100,3.15,RU,1702331959
427,mananjary,-21.2167,48.3333,24.92,91,25,3.38,MG,1702331959
428,at taj,24.2049,23.2857,13.85,62,49,4.15,LY,1702331792
429,salahonda,2.1019,-78.7217,26.53,86,71,5.29,CO,1702331959
430,basco,20.4487,121.9702,26.3,76,47,5.53,PH,1702331959
431,brookings,44.3114,-96.7984,5.21,52,0,7.72,US,1702331775
432,tacuarembo,-31.7333,-55.9833,23.24,71,0,3.34,UY,1702331666
433,mataram,-8.5833,116.1167,24.45,85,80,1.78,ID,1702331960
434,rizokarpaso,35.6,34.375,17.04,69,0,4.16,CY,1702331960
435,ivdel',60.6911,60.4206,-31.01,99,100,1.79,RU,1702331960
436,petropavlovsk-kamchatsky,53.0452,158.6483,-9.67,87,40,7.6,RU,1702331718
437,fuli,46.7217,131.1394,-24.05,93,100,2.0,CN,1702331960
438,sussex,41.1834,-74.6663,4.07,74,100,4.63,US,1702331960
439,beidaihehaibin,39.8222,119.5181,-7.47,52,50,3.19,CN,1702331960
440,tidjikja,18.5564,-11.4271,20.6,15,29,5.53,MR,1702331960
441,sitarganj,28.9333,79.7,12.15,60,0,1.04,IN,1702331960
442,porto novo,6.4965,2.6036,28.9,80,72,2.61,BJ,1702331631
443,filomeno mata,20.2,-97.7,12.43,92,100,1.18,MX,1702331960
444,novaya usman',51.6418,39.4086,-5.53,95,100,7.78,RU,1702331961
445,swift current,50.2834,-107.8014,-3.55,50,0,9.77,CA,1702331961
446,udomlya,57.8794,34.9925,-5.71,91,100,4.62,RU,1702331804
447,vadso,70.0744,29.7487,-9.91,79,20,4.63,NO,1702331763
448,flin flon,54.7682,-101.865,-9.09,62,100,7.72,CA,1702331961
449,yeppoon,-23.1333,150.7333,24.88,74,99,8.79,AU,1702331899
450,lebyazh'ye,55.2689,66.4947,-31.11,97,6,2.49,RU,1702331961
451,navia,43.5354,-6.7194,17.37,67,100,3.92,ES,1702331961
452,sastre,-31.7676,-61.8289,30.04,30,0,5.78,AR,1702331961
453,cobija,-11.0267,-68.7692,34.1,59,40,3.09,BO,1702331961
454,jumla,29.2747,82.1838,-0.55,76,4,2.47,NP,1702331961
455,hami,42.8,93.45,-2.36,53,100,2.52,CN,1702331778
456,ruidoso,33.3317,-105.673,14.47,14,0,3.09,US,1702331962
457,arapgir,39.0412,38.4952,6.81,97,100,2.85,TR,1702331962
458,vernon,50.2581,-119.2691,4.23,90,61,0.51,CA,1702331831
459,quibala,-10.7337,14.98,17.42,99,100,0.24,AO,1702331962
460,moranbah,-22.0016,148.0466,23.29,87,100,9.0,AU,1702331962
461,yokadouma,3.5167,15.05,21.73,48,98,0.82,CM,1702331962
462,ponta delgada,37.7333,-25.6667,14.4,82,20,1.03,PT,1702331962
463,perryton,36.4,-100.8027,14.0,21,0,2.06,US,1702331724
464,itaituba,-4.2761,-55.9836,25.09,88,75,1.54,BR,1702331792
465,muisne,0.6,-80.0333,26.25,82,85,3.55,EC,1702331693
466,carnot,4.9409,15.8665,24.0,37,100,1.18,CF,1702331962
467,montanha,-18.1269,-40.3633,26.06,52,72,7.52,BR,1702331963
468,myingyan,21.4667,95.3833,19.95,83,6,2.21,MM,1702331963
469,saudarkrokur,65.7461,-19.6394,-3.5,93,99,1.23,IS,1702331786
470,calvinia,-31.4707,19.776,16.45,41,0,2.72,ZA,1702331963
471,tamala,52.541,43.2515,-8.65,71,100,9.63,RU,1702331963
472,ballina,-28.8667,153.5667,23.77,63,78,0.61,AU,1702331963
473,zheleznodorozhnyy,55.7503,38.0042,-6.47,93,100,5.36,RU,1702331963
474,pangobilian,8.8011,117.8594,26.22,83,1,5.26,PH,1702331963
475,villarrica,-25.75,-56.4333,25.53,82,1,2.04,PY,1702331963
476,omdurman,15.6445,32.4777,24.94,14,19,4.7,SD,1702331963
477,yaren,-0.5472,166.916,29.02,74,12,4.65,NR,1702331756
478,boende,-0.2167,20.8667,22.51,97,100,0.52,CD,1702331964
479,ardakan,32.31,54.0175,11.34,35,87,2.46,IR,1702331964
480,coquimbo,-29.9533,-71.3436,17.85,72,40,6.17,CL,1702331478
481,nemuro,43.3236,145.575,1.45,71,100,4.83,JP,1702331536
482,lerwick,60.1545,-1.1494,5.0,72,100,3.82,GB,1702331732
483,pemba,-12.974,40.5178,28.39,83,20,1.54,MZ,1702331964
484,andergrove,-21.0833,149.1833,25.91,89,81,10.86,AU,1702331964
485,pointe-noire,-4.7761,11.8635,28.04,83,40,1.54,CG,1702331964
486,flying fish cove,-10.4217,105.6791,23.82,88,40,3.09,CX,1702331748
487,bahia de kino,28.8333,-111.9333,27.62,40,100,4.13,MX,1702331964
488,bardai,11.65,7.2333,16.05,29,0,4.24,NG,1702331964
489,ishigaki,24.3448,124.1572,23.07,100,100,5.66,JP,1702331866
490,monrovia,6.3005,-10.7969,25.87,80,54,1.86,LR,1702331964
491,tomatlan,19.9333,-105.25,33.1,35,6,3.6,MX,1702331965
492,mangrol,21.1167,70.1167,20.61,38,90,4.52,IN,1702331965
493,rio grande city,26.3798,-98.8203,20.06,35,100,6.06,US,1702331862
494,zhaotong,27.3167,103.7167,7.2,87,100,1.46,CN,1702331836
495,cannonvale,-20.2833,148.7,24.66,87,42,9.88,AU,1702331965
496,mathba,22.2855,89.9629,14.51,63,0,2.77,BD,1702331965
497,moa,20.6569,-74.9403,26.85,84,53,4.29,CU,1702331965
498,tosontsengel,48.7567,98.2839,-23.67,97,100,0.49,MN,1702331747
499,barrouallie,13.2333,-61.2667,23.79,100,75,3.6,VC,1702331965
500,hovd,48.0056,91.6419,-17.18,79,100,0.92,MN,1702331762
501,hun,29.1268,15.9477,13.76,73,22,4.06,LY,1702331966
502,abeche,13.8292,20.8324,20.43,20,100,4.1,TD,1702331966
503,funafuti,-8.5243,179.1942,30.0,74,100,0.0,TV,1702331966
504,solnechnyy,50.7214,136.6319,-26.65,96,24,1.91,RU,1702331966
505,sbiba,35.5433,9.0737,14.32,56,20,2.57,TN,1702331966
506,tual,-5.6667,132.75,29.04,75,100,4.75,ID,1702331728
507,letterkenny,54.95,-7.7333,8.94,96,100,4.26,IE,1702331966
508,malango,-2.9627,119.9001,19.58,95,83,1.25,ID,1702331966
509,narvik,68.4384,17.4272,-8.19,91,30,2.78,NO,1702331966
510,broome,42.2506,-75.833,1.05,88,100,4.63,US,1702331742
511,cole harbour,44.6724,-63.4751,13.66,96,100,12.35,CA,1702331966
512,floro,61.5996,5.0328,5.54,60,4,4.12,NO,1702331966
513,dhoro naro,25.5,69.5667,18.5,60,14,3.3,PK,1702331966
514,upington,-28.4478,21.2561,24.21,20,0,2.57,ZA,1702331967
515,salina cruz,16.1667,-95.2,25.45,54,90,13.19,MX,1702331721
516,ust'-uda,54.1742,103.0304,-35.7,100,18,0.74,RU,1702331967
517,nogliki,51.8333,143.1667,-22.03,93,10,4.02,RU,1702331810
518,forster,-32.1667,152.5167,25.77,72,8,1.99,AU,1702331967
519,lulea,65.5842,22.1547,-6.96,93,100,1.54,SE,1702331776
520,sao caetano de odivelas,-0.75,-48.02,26.64,80,67,4.15,BR,1702331967
521,ephrata,40.1798,-76.1788,5.15,64,38,1.34,US,1702331726
522,ban su-ngai pa di,6.0724,101.8717,26.77,97,98,0.81,TH,1702331967
523,erenhot,43.6475,111.9767,-10.5,54,99,3.79,CN,1702331522
524,podgornoye,51.735,39.1496,-5.75,93,100,8.0,RU,1702331967
525,khovd,48.0056,91.6419,-17.18,79,100,0.92,MN,1702331968
526,robertson,36.5167,-86.8667,8.99,45,0,1.54,US,1702331968
527,greymouth,-42.4667,171.2,13.34,60,92,8.17,NZ,1702331968
528,guerrero negro,27.9769,-114.0611,22.63,31,68,3.48,MX,1702331782
529,banjar,-8.19,114.9675,25.11,88,74,2.14,ID,1702331968
530,longuyon,49.4455,5.6015,9.11,98,96,2.98,FR,1702331968
531,mwene-ditu,-7.0,23.45,18.14,97,79,1.11,CD,1702331968
532,arteche,12.2645,125.4048,25.34,90,82,2.51,PH,1702331968
533,ta`u,-14.2336,-169.5144,26.35,90,89,8.57,AS,1702331638
534,al qubbah,32.7616,22.2424,11.56,84,32,5.87,LY,1702331725
535,san felice circeo,41.2372,13.0942,14.39,99,72,3.11,IT,1702331782
536,mary,37.0,62.5,5.2,40,100,4.81,TM,1702331969
537,abadeh,31.1608,52.6506,6.98,32,96,0.94,IR,1702331969
538,toguchin,55.2353,84.3858,-29.46,92,9,5.54,RU,1702331969
539,mutuali,-14.8706,37.0044,23.23,83,22,1.11,MZ,1702331969
540,kamiiso,41.8167,140.65,-0.26,87,100,2.74,JP,1702331969
541,colombo,6.9319,79.8478,24.97,90,90,2.62,LK,1702331969
542,fuglafjordur,62.244,-6.814,4.26,86,100,5.3,FO,1702331969
543,ingeniero guillermo n. juarez,-23.9,-61.85,32.65,46,55,4.41,AR,1702331969
544,sao felix do xingu,-6.6447,-51.995,23.44,97,100,0.94,BR,1702331969
545,khorinsk,52.1657,109.7726,-32.24,99,58,0.52,RU,1702331970
546,taro,-8.3862,115.28,23.0,90,57,0.41,ID,1702331970
547,el nido,11.1858,119.3956,27.39,74,99,2.58,PH,1702331970
548,ivanivka,46.7208,34.553,5.79,94,100,1.54,UA,1702331970
549,marsh harbour,26.5412,-77.0636,23.51,81,100,8.88,BS,1702331970
550,didwana,27.4,74.5667,12.84,32,3,1.02,IN,1702331971
551,gaspe,48.8334,-64.4819,6.95,100,100,3.6,CA,1702331971
552,marka,1.7159,44.7717,26.77,82,75,5.81,SO,1702331971
553,taman',45.2117,36.7161,8.02,89,100,1.89,RU,1702331971
554,goundam,16.4145,-3.6708,22.32,18,0,5.11,ML,1702331869
555,happy valley-goose bay,53.3168,-60.3315,-0.83,86,100,4.12,CA,1702331771
556,nar'yan-mar,67.6713,53.087,-14.39,91,100,8.4,RU,1702331750
557,degema hulk,4.7625,6.752,26.18,82,22,2.7,NG,1702331971
558,sao vicente,-23.9631,-46.3919,25.1,59,100,1.03,BR,1702331825
559,ixtlahuacan del rio,20.8667,-103.25,16.03,64,95,2.74,MX,1702331972
560,kapa'a,22.0752,-159.319,27.49,78,20,4.12,US,1702331972
561,danilovka,50.3557,44.1168,-6.75,43,100,10.28,RU,1702331972
562,port saint john's,-31.6229,29.5448,20.11,89,99,1.6,ZA,1702331973
563,gamba,-2.65,10.0,26.13,82,99,0.89,GA,1702331973
564,silver city,32.7701,-108.2803,16.28,12,0,2.06,US,1702331691
565,kikwit,-5.041,18.8162,21.76,98,100,1.16,CD,1702331973
566,junin de los andes,-39.9504,-71.0694,13.75,50,27,7.11,AR,1702331973
567,ushtobe,45.2514,77.9838,-7.1,94,100,4.17,KZ,1702331835
568,la mitra,8.8422,-79.7867,30.49,83,23,4.92,PA,1702331973
569,magistral'nyy,56.1725,107.4458,-37.02,100,50,0.35,RU,1702331973
570,padang,-0.9492,100.3543,26.03,89,96,1.65,ID,1702331973
571,mirnyy,62.5353,113.9611,-29.46,96,100,2.72,RU,1702331973
572,cova figueira,14.8905,-24.2934,23.22,61,9,5.43,CV,1702331799
573,miandrivazo,-19.5167,45.4667,27.97,72,60,1.29,MG,1702331974
574,willowmore,-33.2926,23.4895,18.06,59,0,1.94,ZA,1702331974
575,ust'-ilimsk,58.0006,102.6619,-35.1,100,97,0.1,RU,1702331776
576,ocean city,39.2776,-74.5746,7.14,65,14,2.24,US,1702331956
577,atasu,48.6814,71.6433,-24.72,83,91,8.4,KZ,1702331974
578,kanganpur,30.7663,74.1231,12.52,28,0,2.43,PK,1702331974
579,sayat,38.7839,63.8803,-3.07,51,44,6.41,TM,1702331974
580,brezina,33.0989,1.2608,15.52,26,78,2.21,DZ,1702331783
